{
"type": "FeatureCollection",
"name": "buildings",
"crs": { "type": "name", "properties": { "name": "urn:ogc:def:crs:OGC:1.3:CRS84" } },
"features": [
{ "type": "Feature", "properties": { "id": 1, "name": "Social and Cultural Affairs Office" }, "geometry": { "type": "Point", "coordinates": [ 121.983288496797115, 12.397726890978564 ] } },
{ "type": "Feature", "properties": { "id": 2, "name": "Sports Development Program Office" }, "geometry": { "type": "Point", "coordinates": [ 121.983663182250922, 12.397304731087454 ] } },
{ "type": "Feature", "properties": { "id": 3, "name": "Multi-Purpose Building" }, "geometry": { "type": "Point", "coordinates": [ 121.983010125472617, 12.396946812383314 ] } },
{ "type": "Feature", "properties": { "id": 4, "name": "College of Arts and Sciences" }, "geometry": { "type": "Point", "coordinates": [ 121.982674200583062, 12.396693286337197 ] } },
{ "type": "Feature", "properties": { "id": 5, "name": "College of Business and Accountancy" }, "geometry": { "type": "Point", "coordinates": [ 121.982868003403922, 12.396290626815968 ] } },
{ "type": "Feature", "properties": { "id": 6, "name": "Registrar" }, "geometry": { "type": "Point", "coordinates": [ 121.983535154932838, 12.39690321968706 ] } },
{ "type": "Feature", "properties": { "id": 7, "name": "Supply and Property Management Office" }, "geometry": { "type": "Point", "coordinates": [ 121.984077802831365, 12.396967461552686 ] } },
{ "type": "Feature", "properties": { "id": 8, "name": "College of Education" }, "geometry": { "type": "Point", "coordinates": [ 121.984178815210768, 12.396795385091311 ] } },
{ "type": "Feature", "properties": { "id": 9, "name": "Learning Resource Center" }, "geometry": { "type": "Point", "coordinates": [ 121.984687400795337, 12.397024820347898 ] } },
{ "type": "Feature", "properties": { "id": 10, "name": "CCMADI" }, "geometry": { "type": "Point", "coordinates": [ 121.983404191208507, 12.395035036366666 ] } },
{ "type": "Feature", "properties": { "id": 11, "name": "Highschool" }, "geometry": { "type": "Point", "coordinates": [ 121.984160609491298, 12.395193347784357 ] } },
{ "type": "Feature", "properties": { "id": 12, "name": "LHSH" }, "geometry": { "type": "Point", "coordinates": [ 121.984712653890242, 12.395358542204669 ] } },
{ "type": "Feature", "properties": { "id": 13, "name": "Research Building" }, "geometry": { "type": "Point", "coordinates": [ 121.985304633415879, 12.395640749097202 ] } },
{ "type": "Feature", "properties": { "id": 14, "name": "College of Engineering and Technology\r" }, "geometry": { "type": "Point", "coordinates": [ 121.986117430701128, 12.395799060147066 ] } },
{ "type": "Feature", "properties": { "id": 15, "name": "Admin" }, "geometry": { "type": "Point", "coordinates": [ 121.985565386302198, 12.395048802580714 ] } }
]
}
